[
  {
    "business_id": "2HEGEScREWLpcOvWBjhTig",
    "name": "Life Time",
    "city": "Framingham",
    "state": "MA",
    "postal_code": "01701",
    "latitude": 42.31312,
    "longitude": -71.39487123264621,
    "stars": 2.5,
    "review_count": 94,
    "categories": [
      "Trainers",
      "Gyms",
      "Sports Clubs"
    ]
  },
  {
    "business_id": "HD1eK9XOz70YTZt5VJ77KA",
    "name": "Club Elevate",
    "city": "Framingham",
    "state": "MA",
    "postal_code": "01701",
    "latitude": 42.29904,
    "longitude": -71.48139,
    "stars": 4.5,
    "review_count": 2,
    "categories": [
      "Gyms",
      "Trainers",
      "Pilates"
    ]
  },
  {
    "business_id": "u2b-ggNHo3GNKIfybPlTKQ",
    "name": "LA Fitness",
    "city": "Natick",
    "state": "MA",
    "postal_code": "01760",
    "latitude": 42.2972198335941,
    "longitude": -71.3857284984327,
    "stars": 2.6,
    "review_count": 111,
    "categories": [
      "Gyms",
      "Trainers",
      "Yoga"
    ]
  },
  {
    "business_id": "w9HnyPsEV8HtnTuD0dcywA",
    "name": "METfit",
    "city": "Natick",
    "state": "MA",
    "postal_code": "01760",
    "latitude": 42.28258,
    "longitude": -71.38958,
    "stars": 3.5,
    "review_count": 15,
    "categories": [
      "Gyms"
    ]
  },
  {
    "business_id": "qo-ydnNTYVxQ5XeX5B0QJw",
    "name": "Impact Metrowest",
    "city": "Framingham",
    "state": "MA",
    "postal_code": "01701",
    "latitude": 42.3227627,
    "longitude": -71.3992661,
    "stars": 4.8,
    "review_count": 38,
    "categories": [
      "Gyms",
      "Trainers",
      "Boot Camps"
    ]
  },
  {
    "business_id": "S1-DtnarWuObVk777H4RGQ",
    "name": "Framingham Fitness",
    "city": "Framingham",
    "state": "MA",
    "postal_code": "01701",
    "latitude": 42.2988259,
    "longitude": -71.4050112,
    "stars": 3.8,
    "review_count": 6,
    "categories": [
      "Trainers",
      "Nutritionists"
    ]
  },
  {
    "business_id": "cngmyEO-sqzNKOldkLB6_A",
    "name": "TJX Gym",
    "city": "Framingham",
    "state": "MA",
    "postal_code": "01701",
    "latitude": 42.310550559393,
    "longitude": -71.3796356320381,
    "stars": 5,
    "review_count": 1,
    "categories": [
      "Gyms"
    ]
  },
  {
    "business_id": "hqlyygvjxxI1mRP9Ftu7mw",
    "name": "Planet Fitness",
    "city": "Natick",
    "state": "MA",
    "postal_code": "01760",
    "latitude": 42.28273319382031,
    "longitude": -71.38521922465732,
    "stars": 2.7,
    "review_count": 96,
    "categories": [
      "Gyms",
      "Trainers"
    ]
  },
  {
    "business_id": "T_V2S-rziFNHulbiszWLFA",
    "name": "Focus On Fitness",
    "city": "Ashland",
    "state": "MA",
    "postal_code": "01721",
    "latitude": 42.2423,
    "longitude": -71.43324,
    "stars": 4.7,
    "review_count": 17,
    "categories": [
      "Gyms",
      "Trainers",
      "Yoga"
    ]
  },
  {
    "business_id": "K6BUjUWP6ymUeZ2qHnGGxA",
    "name": "Metrowest YMCA - Framingham Division",
    "city": "Framingham",
    "state": "MA",
    "postal_code": "01701",
    "latitude": 42.30783,
    "longitude": -71.40205,
    "stars": 3.1,
    "review_count": 34,
    "categories": [
      "Child Care & Day Care",
      "Gyms",
      "Day Camps"
    ]
  },
  {
    "business_id": "K_lAvyNdL7U1sWVk1Yq87g",
    "name": "Anytime Fitness",
    "city": "Framingham",
    "state": "MA",
    "postal_code": "01702",
    "latitude": 42.2970794705171,
    "longitude": -71.4477946354572,
    "stars": 3,
    "review_count": 25,
    "categories": [
      "Gyms",
      "Trainers"
    ]
  },
  {
    "business_id": "QwvHwDsaLcv315BofDG72w",
    "name": "Fitness Together",
    "city": "Natick",
    "state": "MA",
    "postal_code": "01760",
    "latitude": 42.2856,
    "longitude": -71.34669,
    "stars": 5,
    "review_count": 5,
    "categories": [
      "Gyms",
      "Trainers"
    ]
  },
  {
    "business_id": "Vn39wBOfouYJfr8mt59ufw",
    "name": "Longfellow Health Clubs - Natick",
    "city": "Natick",
    "state": "MA",
    "postal_code": "01760",
    "latitude": 42.31422730006094,
    "longitude": -71.3369127830305,
    "stars": 3.2,
    "review_count": 20,
    "categories": [
      "Gyms",
      "Tennis",
      "Trainers"
    ]
  },
  {
    "business_id": "2jTXer-J0s1GQq4wSUrb6g",
    "name": "Longfellow Tennis & Health Club Wayland",
    "city": "Wayland",
    "state": "MA",
    "postal_code": "01778",
    "latitude": 42.365506,
    "longitude": -71.388773,
    "stars": 3.4,
    "review_count": 31,
    "categories": [
      "Gyms",
      "Tennis",
      "Nutritionists"
    ]
  },
  {
    "business_id": "R0X2ZlBNZ6HQ87Buh3fycg",
    "name": "Bancroft Boxing",
    "city": "Natick",
    "state": "MA",
    "postal_code": "01760",
    "latitude": 42.28464263163615,
    "longitude": -71.3479244143369,
    "stars": 4.8,
    "review_count": 17,
    "categories": [
      "Boxing",
      "Gyms"
    ]
  },
  {
    "business_id": "KKgVu5MTXazsU_e6flgiZg",
    "name": "Orangetheory Fitness Natick",
    "city": "Natick",
    "state": "MA",
    "postal_code": "01760",
    "latitude": 42.2842356245778,
    "longitude": -71.3476083042281,
    "stars": 4.6,
    "review_count": 16,
    "categories": [
      "Gyms",
      "Trainers",
      "Boot Camps"
    ]
  },
  {
    "business_id": "lpM6TMH-oGthXw6odq3WUw",
    "name": "Fitness Together",
    "city": "Ashland",
    "state": "MA",
    "postal_code": "01721",
    "latitude": 42.24957,
    "longitude": -71.42602,
    "stars": 5,
    "review_count": 5,
    "categories": [
      "Trainers",
      "Gyms"
    ]
  },
  {
    "business_id": "_zUUFj0cj9AGupGpe-WOJw",
    "name": "Get In Shape For Women - Sudbury",
    "city": "Sudbury",
    "state": "MA",
    "postal_code": "01776",
    "latitude": 42.364866,
    "longitude": -71.421281,
    "stars": 5,
    "review_count": 3,
    "categories": [
      "Trainers",
      "Nutritionists",
      "Cardio Classes"
    ]
  },
  {
    "business_id": "KyF9tgwq2tczZ1Elol5-uw",
    "name": "UpperKuts Boxing Club",
    "city": "Ashland",
    "state": "MA",
    "postal_code": "01721",
    "latitude": 42.2625313,
    "longitude": -71.4668121,
    "stars": 5,
    "review_count": 8,
    "categories": [
      "Gyms",
      "Boxing",
      "Cardio Classes"
    ]
  },
  {
    "business_id": "X3Muj5z0Be7taH4H1wxDnw",
    "name": "Anytime Fitness",
    "city": "Marlborough",
    "state": "MA",
    "postal_code": "01752",
    "latitude": 42.3492593,
    "longitude": -71.49954,
    "stars": 4.3,
    "review_count": 4,
    "categories": [
      "Gyms",
      "Trainers"
    ]
  },
  {
    "business_id": "W-oxzQ1Ubd4Cl8FafVvFSw",
    "name": "Anytime Fitness",
    "city": "Ashland",
    "state": "MA",
    "postal_code": "01721",
    "latitude": 42.2413306,
    "longitude": -71.4317683,
    "stars": 3.1,
    "review_count": 60,
    "categories": [
      "Gyms",
      "Trainers"
    ]
  },
  {
    "business_id": "iDdKSCJNiYnUo2bGjD7C5g",
    "name": "Club Pilates",
    "city": "Framingham",
    "state": "MA",
    "postal_code": "01702",
    "latitude": 42.29775,
    "longitude": -71.40536,
    "stars": 3.5,
    "review_count": 12,
    "categories": [
      "Pilates",
      "Yoga"
    ]
  },
  {
    "business_id": "u6HHGo-iybz_oT1No9dW6A",
    "name": "Physical Ed's",
    "city": "Natick",
    "state": "MA",
    "postal_code": "01760",
    "latitude": 42.28977,
    "longitude": -71.35491,
    "stars": 4.9,
    "review_count": 18,
    "categories": [
      "Trainers"
    ]
  },
  {
    "business_id": "XylYqpBcu87pmqJ47nRN5Q",
    "name": "Fitness Together",
    "city": "Sudbury",
    "state": "MA",
    "postal_code": "01776",
    "latitude": 42.35984,
    "longitude": -71.42213,
    "stars": 5,
    "review_count": 1,
    "categories": [
      "Trainers",
      "Gyms"
    ]
  },
  {
    "business_id": "6niIZu96MQXX7Stz2nHjTA",
    "name": "Central Rock Gym Framingham",
    "city": "Framingham",
    "state": "MA",
    "postal_code": "01701",
    "latitude": 42.31743,
    "longitude": -71.39702,
    "stars": 4.3,
    "review_count": 16,
    "categories": [
      "Rock Climbing",
      "Climbing",
      "Gyms"
    ]
  },
  {
    "business_id": "YPcR3GJQyE1U1vTXUQGLaQ",
    "name": "Wayside Athletic Club",
    "city": "Marlborough",
    "state": "MA",
    "postal_code": "01752",
    "latitude": 42.34175,
    "longitude": -71.51049,
    "stars": 2.6,
    "review_count": 39,
    "categories": [
      "Tennis",
      "Recreation Centers",
      "Swimming Pools"
    ]
  },
  {
    "business_id": "DutdG1e8YKjpYzZSaJs7iQ",
    "name": "CrossFit Synergistics",
    "city": "Ashland",
    "state": "MA",
    "postal_code": "01721",
    "latitude": 42.2621633,
    "longitude": -71.4664677,
    "stars": 4.2,
    "review_count": 14,
    "categories": [
      "Interval Training Gyms"
    ]
  },
  {
    "business_id": "_ji4f8Klw8HHG4XepFceWg",
    "name": "HIIT Kickboxing",
    "city": "Natick",
    "state": "MA",
    "postal_code": "01760",
    "latitude": 42.2874015,
    "longitude": -71.3508769,
    "stars": 4.8,
    "review_count": 9,
    "categories": [
      "Kickboxing"
    ]
  },
  {
    "business_id": "3QcVCNSnMNUf3ZYqHg3i6g",
    "name": "Encompass Fitness",
    "city": "Ashland",
    "state": "MA",
    "postal_code": "01721",
    "latitude": 42.25871823460121,
    "longitude": -71.4568321327464,
    "stars": 2.8,
    "review_count": 10,
    "categories": [
      "Gyms",
      "Trainers",
      "Pilates"
    ]
  },
  {
    "business_id": "4SyA_jcdu-28Mq9xnmY3Mw",
    "name": "Every Body Balance",
    "city": "Southborough",
    "state": "MA",
    "postal_code": "01772",
    "latitude": 42.29180927517301,
    "longitude": -71.51308880323852,
    "stars": 4.8,
    "review_count": 12,
    "categories": [
      "Yoga",
      "Pilates",
      "Barre Classes"
    ]
  },
  {
    "business_id": "OAdL0uuBv0G-dePE4XWBvg",
    "name": "HD Gym",
    "city": "Framingham",
    "state": "MA",
    "postal_code": "01702",
    "latitude": 42.275425,
    "longitude": -71.4169235,
    "stars": 0,
    "review_count": 0,
    "categories": [
      "Gyms"
    ]
  },
  {
    "business_id": "NiNURZ5ib-h4I3AAV8mN8w",
    "name": "Achieve Fitness With Rachel",
    "city": "Framingham",
    "state": "MA",
    "postal_code": "01701",
    "latitude": 42.306943,
    "longitude": -71.451885,
    "stars": 5,
    "review_count": 2,
    "categories": [
      "Trainers"
    ]
  },
  {
    "business_id": "NaXrTdwIBUTfCArUAYuNzw",
    "name": "The FieldHouse",
    "city": "Sudbury",
    "state": "MA",
    "postal_code": "01776",
    "latitude": 42.362918,
    "longitude": -71.427237,
    "stars": 2.7,
    "review_count": 7,
    "categories": [
      "Sports Clubs"
    ]
  },
  {
    "business_id": "y5y2PTy_RnYEwErOqwOPNQ",
    "name": "Crossfit TILT",
    "city": "Sudbury",
    "state": "MA",
    "postal_code": "01776",
    "latitude": 42.3635764,
    "longitude": -71.4221814,
    "stars": 5,
    "review_count": 2,
    "categories": [
      "Trainers",
      "Interval Training Gyms",
      "Boot Camps"
    ]
  },
  {
    "business_id": "u1kNQVvO0nm9ko9GwMqMoQ",
    "name": "Greendale Family Branch YMCA",
    "city": "Worcester",
    "state": "MA",
    "postal_code": "01605",
    "latitude": 42.303422,
    "longitude": -71.809193,
    "stars": 2.2,
    "review_count": 19,
    "categories": [
      "Trainers",
      "Gyms",
      "Child Care & Day Care"
    ]
  },
  {
    "business_id": "EqhO0sIiwTRLdGNcmv3khQ",
    "name": "Crossfit Tilt",
    "city": "Southborough",
    "state": "MA",
    "postal_code": "01772",
    "latitude": 42.266409,
    "longitude": -71.508263,
    "stars": 5,
    "review_count": 7,
    "categories": [
      "Interval Training Gyms"
    ]
  },
  {
    "business_id": "E9yBOMhDb2X0TxbFZJCRNQ",
    "name": "Let's Transform Together",
    "city": "Natick",
    "state": "MA",
    "postal_code": "01760",
    "latitude": 42.284824,
    "longitude": -71.346608,
    "stars": 5,
    "review_count": 4,
    "categories": [
      "Trainers",
      "Yoga",
      "Boot Camps"
    ]
  },
  {
    "business_id": "ipjkMAe9SqSfs9FvIuN_oA",
    "name": "Peloton Boston",
    "city": "Natick",
    "state": "MA",
    "postal_code": "01760",
    "latitude": 42.302419,
    "longitude": -71.383829,
    "stars": 3,
    "review_count": 6,
    "categories": [
      "Fitness/Exercise Equipment",
      "Cycling Classes",
      "Trainers"
    ]
  },
  {
    "business_id": "5AQdBzdSjKH0f4jiKHpSZA",
    "name": "btone FITNESS Wayland",
    "city": "Wayland",
    "state": "MA",
    "postal_code": "01778",
    "latitude": 42.36464,
    "longitude": -71.36825,
    "stars": 5,
    "review_count": 11,
    "categories": [
      "Pilates",
      "Interval Training Gyms"
    ]
  },
  {
    "business_id": "FqinMEGB2xxljlFKlJB81A",
    "name": "Todos Dance & Fitness Studio",
    "city": "Natick",
    "state": "MA",
    "postal_code": "01760",
    "latitude": 42.301574,
    "longitude": -71.351142,
    "stars": 4.4,
    "review_count": 7,
    "categories": [
      "Dance Studios",
      "Trainers",
      "Gyms"
    ]
  },
  {
    "business_id": "S_IVcatDuxvuzpq1K88aBg",
    "name": "Koko FitClub of Sudbury",
    "city": "Sudbury",
    "state": "MA",
    "postal_code": "01776",
    "latitude": 42.3600661,
    "longitude": -71.4215183,
    "stars": 4.4,
    "review_count": 7,
    "categories": [
      "Trainers",
      "Gyms"
    ]
  },
  {
    "business_id": "0BXDH_vGQ-m8f5be0gZrYg",
    "name": "FitFusion Athlete",
    "city": "Natick",
    "state": "MA",
    "postal_code": "01760",
    "latitude": 42.314665967347395,
    "longitude": -71.3335401,
    "stars": 5,
    "review_count": 1,
    "categories": [
      "Boxing",
      "Trainers",
      "Kickboxing"
    ]
  },
  {
    "business_id": "mZ2IuKist5qWP3cNbXn9ug",
    "name": "Daybreak Crossfit",
    "city": "Wayland",
    "state": "MA",
    "postal_code": "01778",
    "latitude": 42.3634653992624,
    "longitude": -71.3879944513817,
    "stars": 5,
    "review_count": 7,
    "categories": [
      "Interval Training Gyms"
    ]
  },
  {
    "business_id": "tCA_Dw2oVHtifSIc5Ee7yw",
    "name": "Athletic Strength Training",
    "city": "Ashland",
    "state": "MA",
    "postal_code": "01721",
    "latitude": 42.254077,
    "longitude": -71.453476,
    "stars": 5,
    "review_count": 5,
    "categories": [
      "Trainers",
      "Boot Camps"
    ]
  },
  {
    "business_id": "sJ0pSKuwmxTfdzrydNrIVw",
    "name": "Mystic Fitness Yoga Studio",
    "city": "Framingham",
    "state": "MA",
    "postal_code": "01701",
    "latitude": 42.30065,
    "longitude": -71.4321499,
    "stars": 4.3,
    "review_count": 29,
    "categories": [
      "Yoga"
    ]
  },
  {
    "business_id": "jWGEB93fPJVaREy0YwhJrw",
    "name": "F45 Training Natick",
    "city": "Natick",
    "state": "MA",
    "postal_code": "01760",
    "latitude": 42.301236,
    "longitude": -71.358865,
    "stars": 4.9,
    "review_count": 8,
    "categories": [
      "Trainers",
      "Interval Training Gyms",
      "Circuit Training Gyms"
    ]
  },
  {
    "business_id": "lUrTq9Ime9s8u3T07lUtVg",
    "name": "MetroWest YMCA Family Outdoor Center",
    "city": "Hopkinton",
    "state": "MA",
    "postal_code": "01748",
    "latitude": 42.22759,
    "longitude": -71.46977,
    "stars": 2.2,
    "review_count": 5,
    "categories": [
      "Child Care & Day Care",
      "Gyms"
    ]
  },
  {
    "business_id": "u2CrTPRVmVNfr3FlYYjj5w",
    "name": "The Olympus Gym",
    "city": "Framingham",
    "state": "MA",
    "postal_code": "01702",
    "latitude": 42.27385292547259,
    "longitude": -71.42727031353357,
    "stars": 0,
    "review_count": 0,
    "categories": [
      "Gyms",
      "Trainers"
    ]
  },
  {
    "business_id": "OKxCva-Ww9CP9Olgatw79Q",
    "name": "Suburban Child",
    "city": "Framingham",
    "state": "MA",
    "postal_code": "01702",
    "latitude": 42.27473,
    "longitude": -71.41156,
    "stars": 2,
    "review_count": 23,
    "categories": [
      "Child Care & Day Care",
      "Preschools",
      "Swimming Lessons/Schools"
    ]
  },
  {
    "business_id": "EMW-ivt035LpOhtm0j44wg",
    "name": "Total Fitness",
    "city": "Framingham",
    "state": "MA",
    "postal_code": "01702",
    "latitude": 42.298578,
    "longitude": -71.428038,
    "stars": 0,
    "review_count": 0,
    "categories": [
      "Fitness & Instruction"
    ]
  }
]